{
  "_comment": "Unified location database for openclaw-travel-agent. Used by resolve_location().",
  "jakarta": { "train": "GMR", "train_alt": "PSE", "airport": "CGK", "airport_alt": "HLP", "lat": -6.2088, "lon": 106.8456, "province": "DKI Jakarta" },
  "bandung": { "train": "BD", "airport": "BDO", "lat": -6.9175, "lon": 107.6191, "province": "Jawa Barat" },
  "cirebon": { "train": "CM", "airport": null, "lat": -6.7320, "lon": 108.5523, "province": "Jawa Barat" },
  "purwokerto": { "train": "PWT", "airport": null, "lat": -7.4225, "lon": 109.2350, "province": "Jawa Tengah" },
  "semarang": { "train": "SMC", "airport": "SRG", "lat": -7.0051, "lon": 110.4381, "province": "Jawa Tengah" },
  "yogyakarta": { "train": "YK", "airport": "JOG", "airport_new": "YIA", "lat": -7.7972, "lon": 110.3688, "province": "DIY" },
  "jogja": { "train": "YK", "airport": "JOG", "airport_new": "YIA", "lat": -7.7972, "lon": 110.3688, "province": "DIY" },
  "solo": { "train": "SLO", "airport": "SOC", "lat": -7.5755, "lon": 110.8243, "province": "Jawa Tengah" },
  "surakarta": { "train": "SLO", "airport": "SOC", "lat": -7.5755, "lon": 110.8243, "province": "Jawa Tengah" },
  "madiun": { "train": "MTN", "airport": null, "lat": -7.6298, "lon": 111.5239, "province": "Jawa Timur" },
  "kediri": { "train": "KD", "airport": null, "lat": -7.8150, "lon": 112.0115, "province": "Jawa Timur" },
  "malang": { "train": "MLG", "airport": "MLG", "lat": -7.9797, "lon": 112.6304, "province": "Jawa Timur" },
  "surabaya": { "train": "SBI", "train_alt": "SBP", "airport": "SUB", "lat": -7.2575, "lon": 112.7521, "province": "Jawa Timur" },
  "sidoarjo": { "train": "SDI", "airport": null, "lat": -7.4478, "lon": 112.7183, "province": "Jawa Timur" },
  "jember": { "train": "JR", "airport": null, "lat": -8.1724, "lon": 113.7016, "province": "Jawa Timur" },
  "banyuwangi": { "train": "BJW", "airport": "BWX", "lat": -8.2192, "lon": 114.3691, "province": "Jawa Timur" },
  "bojonegoro": { "train": "BJN", "airport": null, "lat": -7.1500, "lon": 111.8813, "province": "Jawa Timur" },
  "probolinggo": { "train": "PB", "airport": null, "lat": -7.7543, "lon": 113.2159, "province": "Jawa Timur" },
  "bali": { "train": null, "airport": "DPS", "lat": -8.4095, "lon": 115.1889, "province": "Bali" },
  "denpasar": { "train": null, "airport": "DPS", "lat": -8.6705, "lon": 115.2126, "province": "Bali" },
  "lombok": { "train": null, "airport": "LOP", "lat": -8.6500, "lon": 116.3240, "province": "NTB" },
  "mataram": { "train": null, "airport": "LOP", "lat": -8.5833, "lon": 116.1167, "province": "NTB" },
  "medan": { "train": "MDN", "airport": "MES", "lat": 3.5952, "lon": 98.6722, "province": "Sumatera Utara" },
  "palembang": { "train": "PLD", "airport": "PLM", "lat": -2.9761, "lon": 104.7754, "province": "Sumatera Selatan" },
  "pekanbaru": { "train": null, "airport": "PKU", "lat": 0.5335, "lon": 101.4474, "province": "Riau" },
  "padang": { "train": "PDG", "airport": "PDG", "lat": -0.9471, "lon": 100.4172, "province": "Sumatera Barat" },
  "lampung": { "train": "TJ", "airport": "TKG", "lat": -5.4297, "lon": 105.2610, "province": "Lampung" },
  "bandar lampung": { "train": "TJ", "airport": "TKG", "lat": -5.4297, "lon": 105.2610, "province": "Lampung" },
  "banda aceh": { "train": null, "airport": "BTJ", "lat": 5.5483, "lon": 95.3238, "province": "Aceh" },
  "batam": { "train": null, "airport": "BTH", "lat": 1.1237, "lon": 104.0305, "province": "Kepri" },
  "jambi": { "train": null, "airport": "DJB", "lat": -1.6101, "lon": 103.6131, "province": "Jambi" },
  "bengkulu": { "train": null, "airport": "BKS", "lat": -3.8003, "lon": 102.2655, "province": "Bengkulu" },
  "pangkalpinang": { "train": null, "airport": "PGK", "lat": -2.1317, "lon": 106.1169, "province": "Babel" },
  "lubuklinggau": { "train": "LBH", "airport": null, "lat": -3.2961, "lon": 102.8611, "province": "Sumatera Selatan" },
  "balikpapan": { "train": null, "airport": "BPN", "lat": -1.2675, "lon": 116.8289, "province": "Kaltim" },
  "banjarmasin": { "train": null, "airport": "BDJ", "lat": -3.3194, "lon": 114.5907, "province": "Kalsel" },
  "pontianak": { "train": null, "airport": "PNK", "lat": -0.0263, "lon": 109.3425, "province": "Kalbar" },
  "palangkaraya": { "train": null, "airport": "PKY", "lat": -2.2136, "lon": 113.9108, "province": "Kalteng" },
  "tarakan": { "train": null, "airport": "TRK", "lat": 3.3017, "lon": 117.5763, "province": "Kaltara" },
  "berau": { "train": null, "airport": "BEJ", "lat": 2.1667, "lon": 117.4833, "province": "Kaltim" },
  "makassar": { "train": null, "airport": "UPG", "lat": -5.1477, "lon": 119.4327, "province": "Sulsel" },
  "manado": { "train": null, "airport": "MDC", "lat": 1.4748, "lon": 124.8421, "province": "Sulut" },
  "palu": { "train": null, "airport": "PLW", "lat": -0.8917, "lon": 119.8707, "province": "Sulteng" },
  "kendari": { "train": null, "airport": "KDI", "lat": -3.9427, "lon": 122.5036, "province": "Sultra" },
  "gorontalo": { "train": null, "airport": "GTO", "lat": 0.5435, "lon": 123.0595, "province": "Gorontalo" },
  "ambon": { "train": null, "airport": "AMQ", "lat": -3.6553, "lon": 128.1814, "province": "Maluku" },
  "ternate": { "train": null, "airport": "TTE", "lat": 0.7939, "lon": 127.3740, "province": "Malut" },
  "jayapura": { "train": null, "airport": "DJJ", "lat": -2.5337, "lon": 140.7181, "province": "Papua" },
  "merauke": { "train": null, "airport": "MKQ", "lat": -8.4939, "lon": 140.4019, "province": "Papua" },
  "sorong": { "train": null, "airport": "SOQ", "lat": -0.8942, "lon": 131.2875, "province": "Papua Barat" },
  "manokwari": { "train": null, "airport": "MKW", "lat": -0.8614, "lon": 134.0619, "province": "Papua Barat" },
  "timika": { "train": null, "airport": "TIM", "lat": -4.5281, "lon": 136.8878, "province": "Papua Tengah" }
}
